$GNGLL,4201.21588,N,09340.84606,W,020202.00,A,D*61
$GNGLL,4201.21588,N,09340.84612,W,020203.00,A,D*65
$GNGLL,4201.21587,N,09340.84613,W,020204.00,A,D*6C
$GNGLL,4201.21590,N,09340.84613,W,020205.00,A,D*6B
$GNGLL,4201.21588,N,09340.84618,W,020206.00,A,D*6A
$GNGLL,4201.21586,N,09340.84624,W,020207.00,A,D*6A
$GNGLL,4201.21585,N,09340.84629,W,020208.00,A,D*6B
$GNGLL,4201.21586,N,09340.84629,W,020209.00,A,D*69
$GNGLL,4201.21587,N,09340.84630,W,020210.00,A,D*68
$GNGLL,4201.21583,N,09340.84631,W,020211.00,A,D*6C
$GNGLL,4201.21583,N,09340.84632,W,020212.00,A,D*6C
$GNGLL,4201.21586,N,09340.84634,W,020213.00,A,D*6E
$GNGLL,4201.21588,N,09340.84635,W,020214.00,A,D*66
$GNGLL,4201.21591,N,09340.84637,W,020215.00,A,D*6D
$GNGLL,4201.21595,N,09340.84640,W,020216.00,A,D*6A
$GNGLL,4201.21597,N,09340.84640,W,020217.00,A,D*69
$GNGLL,4201.21617,N,09340.84639,W,020218.00,A,D*63
$GNGLL,4201.21621,N,09340.84641,W,020219.00,A,D*68
$GNGLL,4201.21624,N,09340.84644,W,020220.00,A,D*62
$GNGLL,4201.21627,N,09340.84647,W,020221.00,A,D*63
$GNGLL,4201.21632,N,09340.84650,W,020222.00,A,D*62
$GNGLL,4201.21635,N,09340.84654,W,020223.00,A,D*60
$GNGLL,4201.21638,N,09340.84656,W,020224.00,A,D*68
$GNGLL,4201.21644,N,09340.84659,W,020225.00,A,D*6D
$GNGLL,4201.21666,N,09340.84659,W,020226.00,A,D*6E
$GNGLL,4201.21689,N,09340.84664,W,020227.00,A,D*60
$GNGLL,4201.21710,N,09340.84668,W,020228.00,A,D*62
$GNGLL,4201.21721,N,09340.84673,W,020229.00,A,D*6B
$GNGLL,4201.21722,N,09340.84692,W,020230.00,A,D*6F
$GNGLL,4201.21732,N,09340.84701,W,020231.00,A,D*64
$GNGLL,4201.21737,N,09340.84710,W,020232.00,A,D*62
$GNGLL,4201.21745,N,09340.84716,W,020233.00,A,D*60
$GNGLL,4201.21752,N,09340.84723,W,020234.00,A,D*67
$GNGLL,4201.21757,N,09340.84729,W,020235.00,A,D*69
$GNGLL,4201.21759,N,09340.84734,W,020236.00,A,D*68
$GNGLL,4201.21767,N,09340.84735,W,020237.00,A,D*65
$GNGLL,4201.21770,N,09340.84737,W,020238.00,A,D*6E
$GNGLL,4201.21772,N,09340.84737,W,020239.00,A,D*6D
$GNGLL,4201.21774,N,09340.84737,W,020240.00,A,D*65
$GNGLL,4201.21775,N,09340.84738,W,020241.00,A,D*6A
$GNGLL,4201.21777,N,09340.84738,W,020242.00,A,D*6B
$GNGLL,4201.21779,N,09340.84737,W,020243.00,A,D*6B
$GNGLL,4201.21785,N,09340.84737,W,020244.00,A,D*6F
$GNGLL,4201.21790,N,09340.84737,W,020245.00,A,D*6A
$GNGLL,4201.21797,N,09340.84736,W,020246.00,A,D*6F
$GNGLL,4201.21800,N,09340.84736,W,020247.00,A,D*6F
$GNGLL,4201.21802,N,09340.84737,W,020248.00,A,D*63
$GNGLL,4201.21802,N,09340.84735,W,020249.00,A,D*60
$GNGLL,4201.21807,N,09340.84737,W,020250.00,A,D*6F
$GNGLL,4201.21832,N,09340.84740,W,020251.00,A,D*68
$GNGLL,4201.21832,N,09340.84739,W,020252.00,A,D*65
$GNGLL,4201.21832,N,09340.84739,W,020253.00,A,D*64
$GNGLL,4201.21831,N,09340.84740,W,020254.00,A,D*6E
$GNGLL,4201.21832,N,09340.84744,W,020255.00,A,D*68
$GNGLL,4201.21836,N,09340.84750,W,020256.00,A,D*6A
$GNGLL,4201.21838,N,09340.84753,W,020257.00,A,D*66
$GNGLL,4201.21842,N,09340.84758,W,020258.00,A,D*6F
$GNGLL,4201.21845,N,09340.84762,W,020259.00,A,D*60
$GNGLL,4201.21847,N,09340.84767,W,020300.00,A,D*6A
$GNGLL,4201.21848,N,09340.84768,W,020301.00,A,D*6B
$GNGLL,4201.21851,N,09340.84770,W,020302.00,A,D*69
$GNGLL,4201.21854,N,09340.84774,W,020303.00,A,D*69
$GNGLL,4201.21855,N,09340.84776,W,020304.00,A,D*6D
$GNGLL,4201.21855,N,09340.84780,W,020305.00,A,D*65
$GNGLL,4201.21860,N,09340.84783,W,020306.00,A,D*63
$GNGLL,4201.21862,N,09340.84785,W,020307.00,A,D*66
$GNGLL,4201.21867,N,09340.84788,W,020308.00,A,D*61
$GNGLL,4201.21870,N,09340.84791,W,020309.00,A,D*6E
$GNGLL,4201.21871,N,09340.84792,W,020310.00,A,D*64
$GNGLL,4201.21872,N,09340.84794,W,020311.00,A,D*60
$GNGLL,4201.21871,N,09340.84795,W,020312.00,A,D*61
$GNGLL,4201.21880,N,09340.84796,W,020313.00,A,D*6D
$GNGLL,4201.21887,N,09340.84799,W,020314.00,A,D*62
$GNGLL,4201.21887,N,09340.84803,W,020315.00,A,D*6F
$GNGLL,4201.21886,N,09340.84809,W,020316.00,A,D*67
$GNGLL,4201.21884,N,09340.84813,W,020317.00,A,D*6F
$GNGLL,4201.21890,N,09340.84818,W,020318.00,A,D*6E
$GNGLL,4201.21889,N,09340.84821,W,020319.00,A,D*6D
$GNGLL,4201.21889,N,09340.84825,W,020320.00,A,D*63
$GNGLL,4201.21886,N,09340.84825,W,020321.00,A,D*6D
$GNGLL,4201.21886,N,09340.84824,W,020322.00,A,D*6F
$GNGLL,4201.21885,N,09340.84823,W,020323.00,A,D*6A
$GNGLL,4201.21887,N,09340.84822,W,020324.00,A,D*6E
$GNGLL,4201.21888,N,09340.84823,W,020325.00,A,D*61
$GNGLL,4201.21888,N,09340.84822,W,020326.00,A,D*63
$GNGLL,4201.21890,N,09340.84819,W,020327.00,A,D*63
$GNGLL,4201.21889,N,09340.84814,W,020328.00,A,D*69
$GNGLL,4201.21887,N,09340.84808,W,020329.00,A,D*6B
$GNGLL,4201.21886,N,09340.84803,W,020330.00,A,D*69
$GNGLL,4201.21885,N,09340.84799,W,020331.00,A,D*67
$GNGLL,4201.21883,N,09340.84792,W,020332.00,A,D*69
$GNGLL,4201.21886,N,09340.84787,W,020333.00,A,D*69
$GNGLL,4201.21887,N,09340.84779,W,020334.00,A,D*6E
$GNGLL,4201.21880,N,09340.84771,W,020335.00,A,D*60
$GNGLL,4201.21887,N,09340.84763,W,020336.00,A,D*67
$GNGLL,4201.21887,N,09340.84754,W,020337.00,A,D*62
$GNGLL,4201.21887,N,09340.84748,W,020338.00,A,D*60
$GNGLL,4201.21883,N,09340.84741,W,020339.00,A,D*6C
$GNGLL,4201.21881,N,09340.84732,W,020340.00,A,D*64
$GNGLL,4201.21877,N,09340.84723,W,020341.00,A,D*6C
$GNGLL,4201.21875,N,09340.84712,W,020342.00,A,D*6F
$GNGLL,4201.21874,N,09340.84703,W,020343.00,A,D*6F
$GNGLL,4201.21872,N,09340.84695,W,020344.00,A,D*60
$GNGLL,4201.21867,N,09340.84687,W,020345.00,A,D*66
$GNGLL,4201.21887,N,09340.84682,W,020346.00,A,D*6E
$GNGLL,4201.21881,N,09340.84673,W,020347.00,A,D*67
$GNGLL,4201.21875,N,09340.84666,W,020348.00,A,D*67
$GNGLL,4201.21869,N,09340.84655,W,020349.00,A,D*6B
$GNGLL,4201.21882,N,09340.84646,W,020350.00,A,D*64
$GNGLL,4201.21877,N,09340.84638,W,020351.00,A,D*66
$GNGLL,4201.21875,N,09340.84630,W,020352.00,A,D*6F
$GNGLL,4201.21874,N,09340.84626,W,020353.00,A,D*68
$GNGLL,4201.21873,N,09340.84622,W,020354.00,A,D*6C
$GNGLL,4201.21874,N,09340.84619,W,020355.00,A,D*62
$GNGLL,4201.21873,N,09340.84615,W,020356.00,A,D*6A
$GNGLL,4201.21872,N,09340.84608,W,020357.00,A,D*66
$GNGLL,4201.21869,N,09340.84601,W,020358.00,A,D*6A
$GNGLL,4201.21867,N,09340.84592,W,020359.00,A,D*6C
$GNGLL,4201.21859,N,09340.84577,W,020400.00,A,D*61
$GNGLL,4201.21855,N,09340.84565,W,020401.00,A,D*6F
$GNGLL,4201.21850,N,09340.84554,W,020402.00,A,D*6B
$GNGLL,4201.21847,N,09340.84542,W,020403.00,A,D*6B
$GNGLL,4201.21843,N,09340.84529,W,020404.00,A,D*65
$GNGLL,4201.21840,N,09340.84519,W,020405.00,A,D*64
$GNGLL,4201.21837,N,09340.84506,W,020406.00,A,D*69
$GNGLL,4201.21835,N,09340.84495,W,020407.00,A,D*61
$GNGLL,4201.21835,N,09340.84487,W,020408.00,A,D*6D
$GNGLL,4201.21835,N,09340.84479,W,020409.00,A,D*6D
$GNGLL,4201.21835,N,09340.84473,W,020410.00,A,D*6F
$GNGLL,4201.21836,N,09340.84468,W,020411.00,A,D*67
$GNGLL,4201.21837,N,09340.84466,W,020412.00,A,D*6B
$GNGLL,4201.21852,N,09340.84458,W,020413.00,A,D*64
$GNGLL,4201.21859,N,09340.84451,W,020414.00,A,D*61
$GNGLL,4201.21865,N,09340.84443,W,020415.00,A,D*6C
$GNGLL,4201.21871,N,09340.84435,W,020416.00,A,D*6B
$GNGLL,4201.21876,N,09340.84429,W,020417.00,A,D*60
$GNGLL,4201.21873,N,09340.84422,W,020418.00,A,D*61
$GNGLL,4201.21871,N,09340.84414,W,020419.00,A,D*67
$GNGLL,4201.21868,N,09340.84408,W,020420.00,A,D*68
$GNGLL,4201.21864,N,09340.84400,W,020421.00,A,D*6D
$GNGLL,4201.21864,N,09340.84392,W,020422.00,A,D*62
$GNGLL,4201.21860,N,09340.84387,W,020423.00,A,D*63
$GNGLL,4201.21857,N,09340.84380,W,020424.00,A,D*67
$GNGLL,4201.21863,N,09340.84372,W,020425.00,A,D*6C
$GNGLL,4201.21859,N,09340.84368,W,020426.00,A,D*6D
$GNGLL,4201.21853,N,09340.84361,W,020427.00,A,D*6F
$GNGLL,4201.21853,N,09340.84353,W,020428.00,A,D*61
$GNGLL,4201.21854,N,09340.84349,W,020429.00,A,D*6C
$GNGLL,4201.21850,N,09340.84346,W,020430.00,A,D*6F
$GNGLL,4201.21849,N,09340.84344,W,020431.00,A,D*64
$GNGLL,4201.21849,N,09340.84340,W,020432.00,A,D*63
$GNGLL,4201.21847,N,09340.84336,W,020433.00,A,D*6D
$GNGLL,4201.21845,N,09340.84332,W,020434.00,A,D*6C
$GNGLL,4201.21844,N,09340.84327,W,020435.00,A,D*68
$GNGLL,4201.21843,N,09340.84324,W,020436.00,A,D*6F
$GNGLL,4201.21850,N,09340.84316,W,020437.00,A,D*6D
$GNGLL,4201.21855,N,09340.84309,W,020438.00,A,D*69
$GNGLL,4201.21854,N,09340.84305,W,020439.00,A,D*65
$GNGLL,4201.21862,N,09340.84298,W,020440.00,A,D*6B
$GNGLL,4201.21862,N,09340.84291,W,020441.00,A,D*63
$GNGLL,4201.21861,N,09340.84286,W,020442.00,A,D*65
$GNGLL,4201.21861,N,09340.84280,W,020443.00,A,D*62
$GNGLL,4201.21859,N,09340.84277,W,020444.00,A,D*66
$GNGLL,4201.21856,N,09340.84272,W,020445.00,A,D*6D
$GNGLL,4201.21853,N,09340.84268,W,020446.00,A,D*60
$GNGLL,4201.21848,N,09340.84266,W,020447.00,A,D*65
$GNGLL,4201.21844,N,09340.84263,W,020448.00,A,D*63
$GNGLL,4201.21842,N,09340.84258,W,020449.00,A,D*6C
$GNGLL,4201.21840,N,09340.84253,W,020450.00,A,D*6D
$GNGLL,4201.21837,N,09340.84249,W,020451.00,A,D*67
$GNGLL,4201.21834,N,09340.84244,W,020452.00,A,D*6A
$GNGLL,4201.21830,N,09340.84239,W,020453.00,A,D*65
$GNGLL,4201.21827,N,09340.84234,W,020454.00,A,D*69
$GNGLL,4201.21827,N,09340.84226,W,020455.00,A,D*6B
$GNGLL,4201.21827,N,09340.84220,W,020456.00,A,D*6E
$GNGLL,4201.21824,N,09340.84217,W,020457.00,A,D*68
$GNGLL,4201.21822,N,09340.84212,W,020458.00,A,D*64
$GNGLL,4201.21818,N,09340.84209,W,020459.00,A,D*66
$GNGLL,4201.21815,N,09340.84202,W,020500.00,A,D*6D
$GNGLL,4201.21812,N,09340.84196,W,020501.00,A,D*65
$GNGLL,4201.21808,N,09340.84192,W,020502.00,A,D*69
$GNGLL,4201.21807,N,09340.84187,W,020503.00,A,D*63
$GNGLL,4201.21805,N,09340.84179,W,020504.00,A,D*67
$GNGLL,4201.21800,N,09340.84178,W,020505.00,A,D*62
$GNGLL,4201.21793,N,09340.84179,W,020506.00,A,D*65
$GNGLL,4201.21794,N,09340.84175,W,020507.00,A,D*6F
$GNGLL,4201.21793,N,09340.84178,W,020508.00,A,D*6A
$GNGLL,4201.21800,N,09340.84176,W,020509.00,A,D*60
$GNGLL,4201.21798,N,09340.84176,W,020510.00,A,D*66
$GNGLL,4201.21797,N,09340.84181,W,020511.00,A,D*60
$GNGLL,4201.21796,N,09340.84186,W,020512.00,A,D*65
$GNGLL,4201.21792,N,09340.84192,W,020513.00,A,D*65
$GNGLL,4201.21801,N,09340.84192,W,020514.00,A,D*67
$GNGLL,4201.21807,N,09340.84194,W,020515.00,A,D*66
$GNGLL,4201.21799,N,09340.84202,W,020516.00,A,D*61
$GNGLL,4201.21784,N,09340.84260,W,020517.00,A,D*68
$GNGLL,4201.21784,N,09340.84273,W,020518.00,A,D*65
$GNGLL,4201.21780,N,09340.84287,W,020519.00,A,D*6B
$GNGLL,4201.21776,N,09340.84299,W,020520.00,A,D*67
$GNGLL,4201.21771,N,09340.84313,W,020521.00,A,D*62
$GNGLL,4201.21767,N,09340.84324,W,020522.00,A,D*62
$GNGLL,4201.21758,N,09340.84362,W,020523.00,A,D*6D
$GNGLL,4201.21756,N,09340.84356,W,020524.00,A,D*63
$GNGLL,4201.21757,N,09340.84358,W,020525.00,A,D*6D
$GNGLL,4201.21754,N,09340.84358,W,020526.00,A,D*6D
$GNGLL,4201.21752,N,09340.84357,W,020527.00,A,D*65
$GNGLL,4201.21753,N,09340.84353,W,020528.00,A,D*6F
$GNGLL,4201.21754,N,09340.84349,W,020529.00,A,D*62
$GNGLL,4201.21752,N,09340.84347,W,020530.00,A,D*62
$GNGLL,4201.21752,N,09340.84344,W,020531.00,A,D*60
$GNGLL,4201.21750,N,09340.84342,W,020532.00,A,D*67
$GNGLL,4201.21749,N,09340.84337,W,020533.00,A,D*6C
$GNGLL,4201.21749,N,09340.84332,W,020534.00,A,D*6E
$GNGLL,4201.21744,N,09340.84326,W,020535.00,A,D*67
$GNGLL,4201.21741,N,09340.84321,W,020536.00,A,D*66
$GNGLL,4201.21738,N,09340.84316,W,020537.00,A,D*6D
$GNGLL,4201.21747,N,09340.84303,W,020538.00,A,D*6E
$GNGLL,4201.21741,N,09340.84299,W,020539.00,A,D*6B
$GNGLL,4201.21742,N,09340.84292,W,020540.00,A,D*6D
$GNGLL,4201.21741,N,09340.84287,W,020541.00,A,D*6B
$GNGLL,4201.21739,N,09340.84285,W,020542.00,A,D*65
$GNGLL,4201.21736,N,09340.84281,W,020543.00,A,D*6F
$GNGLL,4201.21732,N,09340.84279,W,020544.00,A,D*6B
$GNGLL,4201.21728,N,09340.84276,W,020545.00,A,D*6E
$GNGLL,4201.21723,N,09340.84272,W,020546.00,A,D*62
$GNGLL,4201.21720,N,09340.84269,W,020547.00,A,D*6A
$GNGLL,4201.21717,N,09340.84265,W,020548.00,A,D*6D
$GNGLL,4201.21715,N,09340.84261,W,020549.00,A,D*6A
$GNGLL,4201.21712,N,09340.84257,W,020550.00,A,D*60
$GNGLL,4201.21712,N,09340.84254,W,020551.00,A,D*62
$GNGLL,4201.21713,N,09340.84253,W,020552.00,A,D*67
$GNGLL,4201.21712,N,09340.84254,W,020553.00,A,D*60
$GNGLL,4201.21711,N,09340.84256,W,020554.00,A,D*66
$GNGLL,4201.21710,N,09340.84256,W,020555.00,A,D*66
$GNGLL,4201.21712,N,09340.84253,W,020556.00,A,D*62
$GNGLL,4201.21717,N,09340.84253,W,020557.00,A,D*66
$GNGLL,4201.21722,N,09340.84253,W,020558.00,A,D*6F
$GNGLL,4201.21724,N,09340.84252,W,020559.00,A,D*69
$GNGLL,4201.21726,N,09340.84249,W,020600.00,A,D*6E
$GNGLL,4201.21726,N,09340.84247,W,020601.00,A,D*61
$GNGLL,4201.21726,N,09340.84246,W,020602.00,A,D*63
$GNGLL,4201.21734,N,09340.84241,W,020603.00,A,D*66
$GNGLL,4201.21733,N,09340.84239,W,020604.00,A,D*69
$GNGLL,4201.21734,N,09340.84239,W,020605.00,A,D*6F
$GNGLL,4201.21739,N,09340.84236,W,020606.00,A,D*6E
$GNGLL,4201.21749,N,09340.84232,W,020607.00,A,D*6C
$GNGLL,4201.21757,N,09340.84226,W,020608.00,A,D*69
$GNGLL,4201.21755,N,09340.84224,W,020609.00,A,D*68
$GNGLL,4201.21758,N,09340.84216,W,020610.00,A,D*6C
$GNGLL,4201.21757,N,09340.84213,W,020611.00,A,D*67
$GNGLL,4201.21761,N,09340.84207,W,020612.00,A,D*64
$GNGLL,4201.21766,N,09340.84204,W,020613.00,A,D*61
$GNGLL,4201.21768,N,09340.84202,W,020614.00,A,D*6E
$GNGLL,4201.21769,N,09340.84200,W,020615.00,A,D*6C
$GNGLL,4201.21773,N,09340.84196,W,020616.00,A,D*68
$GNGLL,4201.21777,N,09340.84193,W,020617.00,A,D*68
$GNGLL,4201.21775,N,09340.84192,W,020618.00,A,D*64
$GNGLL,4201.21779,N,09340.84190,W,020619.00,A,D*6B
$GNGLL,4201.21780,N,09340.84189,W,020620.00,A,D*6F
$GNGLL,4201.21779,N,09340.84191,W,020621.00,A,D*61
$GNGLL,4201.21779,N,09340.84191,W,020622.00,A,D*62
$GNGLL,4201.21779,N,09340.84189,W,020623.00,A,D*6A
$GNGLL,4201.21788,N,09340.84180,W,020624.00,A,D*6A
$GNGLL,4201.21793,N,09340.84176,W,020625.00,A,D*68
$GNGLL,4201.21794,N,09340.84172,W,020626.00,A,D*68
$GNGLL,4201.21792,N,09340.84167,W,020627.00,A,D*6B
$GNGLL,4201.21797,N,09340.84158,W,020628.00,A,D*6D
$GNGLL,4201.21798,N,09340.84147,W,020629.00,A,D*6D
$GNGLL,4201.21807,N,09340.84135,W,020630.00,A,D*69
$GNGLL,4201.21811,N,09340.84125,W,020631.00,A,D*6E
$GNGLL,4201.21808,N,09340.84112,W,020632.00,A,D*61
$GNGLL,4201.21803,N,09340.84101,W,020633.00,A,D*69
$GNGLL,4201.21799,N,09340.84093,W,020634.00,A,D*68
$GNGLL,4201.21796,N,09340.84088,W,020635.00,A,D*6C
$GNGLL,4201.21792,N,09340.84082,W,020636.00,A,D*61
$GNGLL,4201.21789,N,09340.84078,W,020637.00,A,D*6F
$GNGLL,4201.21787,N,09340.84074,W,020638.00,A,D*62
$GNGLL,4201.21788,N,09340.84071,W,020639.00,A,D*69
$GNGLL,4201.21788,N,09340.84067,W,020640.00,A,D*60
$GNGLL,4201.21788,N,09340.84063,W,020641.00,A,D*65
$GNGLL,4201.21787,N,09340.84059,W,020642.00,A,D*60
$GNGLL,4201.21781,N,09340.84055,W,020643.00,A,D*6B
$GNGLL,4201.21776,N,09340.84049,W,020644.00,A,D*69
$GNGLL,4201.21773,N,09340.84046,W,020645.00,A,D*62
$GNGLL,4201.21775,N,09340.84038,W,020646.00,A,D*6E
$GNGLL,4201.21777,N,09340.84030,W,020647.00,A,D*65
$GNGLL,4201.21779,N,09340.84020,W,020648.00,A,D*65
$GNGLL,4201.21780,N,09340.84013,W,020649.00,A,D*62
$GNGLL,4201.21775,N,09340.84013,W,020650.00,A,D*60
$GNGLL,4201.21772,N,09340.84013,W,020651.00,A,D*66
$GNGLL,4201.21769,N,09340.84012,W,020652.00,A,D*6E
$GNGLL,4201.21767,N,09340.84014,W,020653.00,A,D*67
$GNGLL,4201.21764,N,09340.84013,W,020654.00,A,D*64
$GNGLL,4201.21760,N,09340.84018,W,020655.00,A,D*6A
$GNGLL,4201.21764,N,09340.84021,W,020656.00,A,D*67
$GNGLL,4201.21762,N,09340.84024,W,020657.00,A,D*65
$GNGLL,4201.21759,N,09340.84033,W,020658.00,A,D*64
$GNGLL,4201.21756,N,09340.84037,W,020659.00,A,D*6E
$GNGLL,4201.21755,N,09340.84040,W,020700.00,A,D*60
$GNGLL,4201.21754,N,09340.84044,W,020701.00,A,D*64
$GNGLL,4201.21755,N,09340.84045,W,020702.00,A,D*67
$GNGLL,4201.21756,N,09340.84047,W,020703.00,A,D*67
$GNGLL,4201.21754,N,09340.84051,W,020704.00,A,D*65
$GNGLL,4201.21755,N,09340.84054,W,020705.00,A,D*60
$GNGLL,4201.21756,N,09340.84054,W,020706.00,A,D*60
$GNGLL,4201.21757,N,09340.84056,W,020707.00,A,D*62
$GNGLL,4201.21758,N,09340.84059,W,020708.00,A,D*6D
$GNGLL,4201.21759,N,09340.84060,W,020709.00,A,D*67
$GNGLL,4201.21759,N,09340.84063,W,020710.00,A,D*6C
$GNGLL,4201.21759,N,09340.84060,W,020711.00,A,D*6E
$GNGLL,4201.21758,N,09340.84065,W,020712.00,A,D*69
$GNGLL,4201.21758,N,09340.84068,W,020713.00,A,D*65
$GNGLL,4201.21756,N,09340.84076,W,020714.00,A,D*63
$GNGLL,4201.21755,N,09340.84084,W,020715.00,A,D*6C
$GNGLL,4201.21754,N,09340.84090,W,020716.00,A,D*6B
$GNGLL,4201.21752,N,09340.84096,W,020717.00,A,D*6A
$GNGLL,4201.21751,N,09340.84104,W,020718.00,A,D*6C
$GNGLL,4201.21751,N,09340.84112,W,020719.00,A,D*6A
$GNGLL,4201.21751,N,09340.84119,W,020720.00,A,D*6B
$GNGLL,4201.21752,N,09340.84126,W,020721.00,A,D*65
$GNGLL,4201.21752,N,09340.84134,W,020722.00,A,D*65
$GNGLL,4201.21754,N,09340.84142,W,020723.00,A,D*63
$GNGLL,4201.21755,N,09340.84148,W,020724.00,A,D*6F
$GNGLL,4201.21751,N,09340.84151,W,020725.00,A,D*62
$GNGLL,4201.21755,N,09340.84152,W,020726.00,A,D*66
$GNGLL,4201.21748,N,09340.84157,W,020727.00,A,D*6E
$GNGLL,4201.21750,N,09340.84158,W,020728.00,A,D*67
$GNGLL,4201.21753,N,09340.84162,W,020729.00,A,D*6C
$GNGLL,4201.21752,N,09340.84169,W,020730.00,A,D*6E
$GNGLL,4201.21751,N,09340.84176,W,020731.00,A,D*62
$GNGLL,4201.21751,N,09340.84191,W,020732.00,A,D*68
$GNGLL,4201.21752,N,09340.84203,W,020733.00,A,D*62
$GNGLL,4201.21751,N,09340.84212,W,020734.00,A,D*66
$GNGLL,4201.21753,N,09340.84219,W,020735.00,A,D*6E
$GNGLL,4201.21754,N,09340.84228,W,020736.00,A,D*68
$GNGLL,4201.21755,N,09340.84236,W,020737.00,A,D*67
$GNGLL,4201.21754,N,09340.84244,W,020738.00,A,D*6C
$GNGLL,4201.21755,N,09340.84247,W,020739.00,A,D*6F
$GNGLL,4201.21756,N,09340.84254,W,020740.00,A,D*60
$GNGLL,4201.21757,N,09340.84262,W,020741.00,A,D*65
$GNGLL,4201.21757,N,09340.84267,W,020742.00,A,D*63
$GNGLL,4201.21758,N,09340.84272,W,020743.00,A,D*69
$GNGLL,4201.21759,N,09340.84278,W,020744.00,A,D*65
$GNGLL,4201.21761,N,09340.84286,W,020745.00,A,D*6E
$GNGLL,4201.21763,N,09340.84293,W,020746.00,A,D*6B
$GNGLL,4201.21766,N,09340.84302,W,020747.00,A,D*66
$GNGLL,4201.21770,N,09340.84308,W,020748.00,A,D*64
$GNGLL,4201.21774,N,09340.84314,W,020749.00,A,D*6C
$GNGLL,4201.21778,N,09340.84320,W,020750.00,A,D*6F
$GNGLL,4201.21782,N,09340.84326,W,020751.00,A,D*6D
$GNGLL,4201.21785,N,09340.84332,W,020752.00,A,D*6C
$GNGLL,4201.21791,N,09340.84335,W,020753.00,A,D*6F
$GNGLL,4201.21795,N,09340.84340,W,020754.00,A,D*6E
$GNGLL,4201.21799,N,09340.84345,W,020755.00,A,D*66
$GNGLL,4201.21800,N,09340.84353,W,020756.00,A,D*6D
$GNGLL,4201.21804,N,09340.84358,W,020757.00,A,D*63
$GNGLL,4201.21808,N,09340.84362,W,020758.00,A,D*69
$GNGLL,4201.21813,N,09340.84368,W,020759.00,A,D*68
$GNGLL,4201.21816,N,09340.84373,W,020800.00,A,D*64
$GNGLL,4201.21820,N,09340.84377,W,020801.00,A,D*64
$GNGLL,4201.21825,N,09340.84380,W,020802.00,A,D*6A
$GNGLL,4201.21828,N,09340.84382,W,020803.00,A,D*64
$GNGLL,4201.21831,N,09340.84383,W,020804.00,A,D*6A
$GNGLL,4201.21833,N,09340.84381,W,020805.00,A,D*6B
$GNGLL,4201.21837,N,09340.84381,W,020806.00,A,D*6C
$GNGLL,4201.21842,N,09340.84383,W,020807.00,A,D*6D
$GNGLL,4201.21847,N,09340.84386,W,020808.00,A,D*62
$GNGLL,4201.21851,N,09340.84390,W,020809.00,A,D*63
$GNGLL,4201.21855,N,09340.84392,W,020810.00,A,D*6D
$GNGLL,4201.21858,N,09340.84393,W,020811.00,A,D*60
$GNGLL,4201.21860,N,09340.84394,W,020812.00,A,D*6F
$GNGLL,4201.21865,N,09340.84391,W,020813.00,A,D*6E
$GNGLL,4201.21866,N,09340.84392,W,020814.00,A,D*69
$GNGLL,4201.21864,N,09340.84392,W,020815.00,A,D*6A
$GNGLL,4201.21867,N,09340.84392,W,020816.00,A,D*6A
$GNGLL,4201.21865,N,09340.84396,W,020817.00,A,D*6D
$GNGLL,4201.21863,N,09340.84394,W,020818.00,A,D*66
$GNGLL,4201.21859,N,09340.84393,W,020819.00,A,D*69
$GNGLL,4201.21856,N,09340.84390,W,020820.00,A,D*6F
$GNGLL,4201.21852,N,09340.84387,W,020821.00,A,D*6C
$GNGLL,4201.21847,N,09340.84383,W,020822.00,A,D*6F
$GNGLL,4201.21842,N,09340.84382,W,020823.00,A,D*6A
$GNGLL,4201.21837,N,09340.84379,W,020824.00,A,D*6B
$GNGLL,4201.21830,N,09340.84374,W,020825.00,A,D*60
$GNGLL,4201.21827,N,09340.84373,W,020826.00,A,D*62
$GNGLL,4201.21825,N,09340.84373,W,020827.00,A,D*61
$GNGLL,4201.21822,N,09340.84374,W,020828.00,A,D*6E
$GNGLL,4201.21819,N,09340.84376,W,020829.00,A,D*65
$GNGLL,4201.21815,N,09340.84377,W,020830.00,A,D*60
$GNGLL,4201.21811,N,09340.84376,W,020831.00,A,D*64
$GNGLL,4201.21802,N,09340.84366,W,020832.00,A,D*64
$GNGLL,4201.21798,N,09340.84365,W,020833.00,A,D*6A
$GNGLL,4201.21791,N,09340.84360,W,020834.00,A,D*61
$GNGLL,4201.21786,N,09340.84357,W,020835.00,A,D*62
$GNGLL,4201.21781,N,09340.84355,W,020836.00,A,D*64
$GNGLL,4201.21776,N,09340.84353,W,020837.00,A,D*6B
$GNGLL,4201.21770,N,09340.84348,W,020838.00,A,D*68
$GNGLL,4201.21768,N,09340.84344,W,020839.00,A,D*6C
$GNGLL,4201.21763,N,09340.84341,W,020840.00,A,D*6C
$GNGLL,4201.21758,N,09340.84337,W,020841.00,A,D*64
$GNGLL,4201.21752,N,09340.84331,W,020842.00,A,D*6B
$GNGLL,4201.21746,N,09340.84325,W,020843.00,A,D*6A
$GNGLL,4201.21740,N,09340.84319,W,020844.00,A,D*64
$GNGLL,4201.21735,N,09340.84313,W,020845.00,A,D*6D
$GNGLL,4201.21729,N,09340.84308,W,020846.00,A,D*69
$GNGLL,4201.21725,N,09340.84302,W,020847.00,A,D*6E
$GNGLL,4201.21719,N,09340.84297,W,020848.00,A,D*63
$GNGLL,4201.21713,N,09340.84293,W,020849.00,A,D*6C
$GNGLL,4201.21709,N,09340.84289,W,020850.00,A,D*64
$GNGLL,4201.21704,N,09340.84284,W,020851.00,A,D*65
$GNGLL,4201.21701,N,09340.84280,W,020852.00,A,D*67
$GNGLL,4201.21699,N,09340.84278,W,020853.00,A,D*61
$GNGLL,4201.21699,N,09340.84276,W,020854.00,A,D*68
$GNGLL,4201.21690,N,09340.84264,W,020855.00,A,D*63
$GNGLL,4201.21688,N,09340.84258,W,020856.00,A,D*66
$GNGLL,4201.21686,N,09340.84255,W,020857.00,A,D*64
$GNGLL,4201.21682,N,09340.84252,W,020858.00,A,D*68
$GNGLL,4201.21679,N,09340.84248,W,020859.00,A,D*66
$GNGLL,4201.21677,N,09340.84246,W,020900.00,A,D*6B
$GNGLL,4201.21675,N,09340.84243,W,020901.00,A,D*6D
$GNGLL,4201.21671,N,09340.84240,W,020902.00,A,D*69
$GNGLL,4201.21665,N,09340.84239,W,020903.00,A,D*63
$GNGLL,4201.21661,N,09340.84239,W,020904.00,A,D*60
$GNGLL,4201.21659,N,09340.84237,W,020905.00,A,D*64
$GNGLL,4201.21658,N,09340.84239,W,020906.00,A,D*68
$GNGLL,4201.21655,N,09340.84236,W,020907.00,A,D*6B
$GNGLL,4201.21648,N,09340.84230,W,020908.00,A,D*6E
$GNGLL,4201.21641,N,09340.84231,W,020909.00,A,D*67
$GNGLL,4201.21636,N,09340.84227,W,020910.00,A,D*68
$GNGLL,4201.21632,N,09340.84222,W,020911.00,A,D*68
$GNGLL,4201.21628,N,09340.84219,W,020912.00,A,D*68
$GNGLL,4201.21624,N,09340.84217,W,020913.00,A,D*6B
$GNGLL,4201.21625,N,09340.84215,W,020914.00,A,D*6F
$GNGLL,4201.21623,N,09340.84217,W,020915.00,A,D*6A
$GNGLL,4201.21621,N,09340.84217,W,020916.00,A,D*6B
$GNGLL,4201.21620,N,09340.84215,W,020917.00,A,D*69
$GNGLL,4201.21619,N,09340.84214,W,020918.00,A,D*6D
$GNGLL,4201.21614,N,09340.84214,W,020919.00,A,D*61
$GNGLL,4201.21614,N,09340.84214,W,020920.00,A,D*6B
$GNGLL,4201.21608,N,09340.84213,W,020921.00,A,D*60
$GNGLL,4201.21600,N,09340.84208,W,020922.00,A,D*61
$GNGLL,4201.21591,N,09340.84213,W,020923.00,A,D*61
$GNGLL,4201.21586,N,09340.84220,W,020924.00,A,D*60
$GNGLL,4201.21585,N,09340.84224,W,020925.00,A,D*66
$GNGLL,4201.21583,N,09340.84226,W,020926.00,A,D*61
$GNGLL,4201.21581,N,09340.84223,W,020927.00,A,D*67
$GNGLL,4201.21581,N,09340.84222,W,020928.00,A,D*69
$GNGLL,4201.21580,N,09340.84219,W,020929.00,A,D*61
$GNGLL,4201.21577,N,09340.84220,W,020930.00,A,D*6B
$GNGLL,4201.21575,N,09340.84223,W,020931.00,A,D*6B
$GNGLL,4201.21571,N,09340.84231,W,020932.00,A,D*6F
$GNGLL,4201.21568,N,09340.84235,W,020933.00,A,D*62
$GNGLL,4201.21570,N,09340.84240,W,020934.00,A,D*6E
$GNGLL,4201.21573,N,09340.84247,W,020935.00,A,D*6B
$GNGLL,4201.21571,N,09340.84249,W,020936.00,A,D*64
$GNGLL,4201.21573,N,09340.84254,W,020937.00,A,D*6B
$GNGLL,4201.21573,N,09340.84259,W,020938.00,A,D*69
$GNGLL,4201.21576,N,09340.84266,W,020939.00,A,D*61
$GNGLL,4201.21579,N,09340.84271,W,020940.00,A,D*66
$GNGLL,4201.21581,N,09340.84277,W,020941.00,A,D*66
$GNGLL,4201.21581,N,09340.84285,W,020942.00,A,D*68
$GNGLL,4201.21587,N,09340.84288,W,020943.00,A,D*62
$GNGLL,4201.21589,N,09340.84295,W,020944.00,A,D*67
$GNGLL,4201.21595,N,09340.84302,W,020945.00,A,D*64
$GNGLL,4201.21601,N,09340.84307,W,020946.00,A,D*6C
$GNGLL,4201.21604,N,09340.84312,W,020947.00,A,D*6C
$GNGLL,4201.21606,N,09340.84310,W,020948.00,A,D*63
$GNGLL,4201.21607,N,09340.84303,W,020949.00,A,D*61
$GNGLL,4201.21609,N,09340.84303,W,020950.00,A,D*67
$GNGLL,4201.21605,N,09340.84306,W,020951.00,A,D*6F
$GNGLL,4201.21612,N,09340.84300,W,020952.00,A,D*6C
$GNGLL,4201.21610,N,09340.84299,W,020953.00,A,D*6E
$GNGLL,4201.21617,N,09340.84301,W,020954.00,A,D*6E
$GNGLL,4201.21615,N,09340.84305,W,020955.00,A,D*69
$GNGLL,4201.21630,N,09340.84301,W,020956.00,A,D*69
$GNGLL,4201.21640,N,09340.84299,W,020957.00,A,D*6F
$GNGLL,4201.21644,N,09340.84300,W,020958.00,A,D*65
$GNGLL,4201.21635,N,09340.84306,W,020959.00,A,D*64
$GNGLL,4201.21641,N,09340.84305,W,021000.00,A,D*60
$GNGLL,4201.21650,N,09340.84304,W,021001.00,A,D*60
$GNGLL,4201.21647,N,09340.84306,W,021002.00,A,D*67
$GNGLL,4201.21645,N,09340.84309,W,021003.00,A,D*6B
$GNGLL,4201.21648,N,09340.84309,W,021004.00,A,D*61
$GNGLL,4201.21649,N,09340.84311,W,021005.00,A,D*68
$GNGLL,4201.21650,N,09340.84313,W,021006.00,A,D*61
$GNGLL,4201.21656,N,09340.84314,W,021007.00,A,D*61
$GNGLL,4201.21662,N,09340.84312,W,021008.00,A,D*6F
$GNGLL,4201.21664,N,09340.84311,W,021009.00,A,D*6B
$GNGLL,4201.21665,N,09340.84310,W,021010.00,A,D*63
$GNGLL,4201.21666,N,09340.84307,W,021011.00,A,D*67
$GNGLL,4201.21670,N,09340.84304,W,021012.00,A,D*60
$GNGLL,4201.21673,N,09340.84303,W,021013.00,A,D*65
$GNGLL,4201.21675,N,09340.84304,W,021014.00,A,D*63
$GNGLL,4201.21682,N,09340.84304,W,021015.00,A,D*6A
$GNGLL,4201.21680,N,09340.84301,W,021016.00,A,D*6E
$GNGLL,4201.21683,N,09340.84302,W,021017.00,A,D*6F
$GNGLL,4201.21685,N,09340.84300,W,021018.00,A,D*64
$GNGLL,4201.21690,N,09340.84299,W,021019.00,A,D*60
$GNGLL,4201.21690,N,09340.84295,W,021020.00,A,D*66
$GNGLL,4201.21688,N,09340.84295,W,021021.00,A,D*6E
$GNGLL,4201.21690,N,09340.84294,W,021022.00,A,D*65
$GNGLL,4201.21689,N,09340.84289,W,021023.00,A,D*60
$GNGLL,4201.21687,N,09340.84286,W,021024.00,A,D*66
$GNGLL,4201.21687,N,09340.84286,W,021025.00,A,D*67
$GNGLL,4201.21685,N,09340.84283,W,021026.00,A,D*63
$GNGLL,4201.21686,N,09340.84280,W,021027.00,A,D*62
$GNGLL,4201.21683,N,09340.84278,W,021028.00,A,D*6F
$GNGLL,4201.21682,N,09340.84275,W,021029.00,A,D*62
$GNGLL,4201.21681,N,09340.84269,W,021030.00,A,D*64
$GNGLL,4201.21681,N,09340.84266,W,021031.00,A,D*6A
$GNGLL,4201.21682,N,09340.84261,W,021032.00,A,D*6D
$GNGLL,4201.21681,N,09340.84258,W,021033.00,A,D*65
$GNGLL,4201.21679,N,09340.84254,W,021034.00,A,D*69
$GNGLL,4201.21679,N,09340.84252,W,021035.00,A,D*6E
$GNGLL,4201.21681,N,09340.84250,W,021036.00,A,D*68
$GNGLL,4201.21681,N,09340.84247,W,021037.00,A,D*6F
$GNGLL,4201.21685,N,09340.84246,W,021038.00,A,D*65
$GNGLL,4201.21688,N,09340.84240,W,021039.00,A,D*6F
$GNGLL,4201.21686,N,09340.84234,W,021040.00,A,D*6C
$GNGLL,4201.21690,N,09340.84232,W,021041.00,A,D*6C
$GNGLL,4201.21689,N,09340.84227,W,021042.00,A,D*63
$GNGLL,4201.21688,N,09340.84221,W,021043.00,A,D*65
$GNGLL,4201.21689,N,09340.84215,W,021044.00,A,D*64
$GNGLL,4201.21691,N,09340.84210,W,021045.00,A,D*69
$GNGLL,4201.21696,N,09340.84207,W,021046.00,A,D*6B
$GNGLL,4201.21700,N,09340.84207,W,021047.00,A,D*64
$GNGLL,4201.21696,N,09340.84206,W,021048.00,A,D*64
$GNGLL,4201.21698,N,09340.84203,W,021049.00,A,D*6E
$GNGLL,4201.21699,N,09340.84199,W,021050.00,A,D*67
$GNGLL,4201.21699,N,09340.84198,W,021051.00,A,D*67
$GNGLL,4201.21702,N,09340.84199,W,021052.00,A,D*66
$GNGLL,4201.21704,N,09340.84197,W,021053.00,A,D*6F
$GNGLL,4201.21707,N,09340.84193,W,021054.00,A,D*6F
$GNGLL,4201.21709,N,09340.84193,W,021055.00,A,D*60
$GNGLL,4201.21711,N,09340.84197,W,021056.00,A,D*6E
$GNGLL,4201.21711,N,09340.84199,W,021057.00,A,D*61
$GNGLL,4201.21711,N,09340.84200,W,021058.00,A,D*6D
$GNGLL,4201.21713,N,09340.84199,W,021059.00,A,D*6D
$GNGLL,4201.21713,N,09340.84201,W,021100.00,A,D*62
$GNGLL,4201.21710,N,09340.84202,W,021101.00,A,D*63
$GNGLL,4201.21710,N,09340.84205,W,021102.00,A,D*67
$GNGLL,4201.21708,N,09340.84202,W,021103.00,A,D*68
$GNGLL,4201.21705,N,09340.84202,W,021104.00,A,D*62
$GNGLL,4201.21705,N,09340.84199,W,021105.00,A,D*62
$GNGLL,4201.21709,N,09340.84196,W,021106.00,A,D*62
$GNGLL,4201.21711,N,09340.84192,W,021107.00,A,D*6E
$GNGLL,4201.21716,N,09340.84189,W,021108.00,A,D*6C
$GNGLL,4201.21718,N,09340.84189,W,021109.00,A,D*63
$GNGLL,4201.21718,N,09340.84185,W,021110.00,A,D*67
$GNGLL,4201.21720,N,09340.84183,W,021111.00,A,D*6B
$GNGLL,4201.21720,N,09340.84184,W,021112.00,A,D*6F
$GNGLL,4201.21722,N,09340.84184,W,021113.00,A,D*6C
$GNGLL,4201.21723,N,09340.84186,W,021114.00,A,D*68
$GNGLL,4201.21726,N,09340.84187,W,021115.00,A,D*6D
$GNGLL,4201.21726,N,09340.84188,W,021116.00,A,D*61
$GNGLL,4201.21727,N,09340.84187,W,021117.00,A,D*6E
$GNGLL,4201.21729,N,09340.84186,W,021118.00,A,D*6E
$GNGLL,4201.21734,N,09340.84183,W,021119.00,A,D*66
$GNGLL,4201.21739,N,09340.84183,W,021120.00,A,D*61
$GNGLL,4201.21744,N,09340.84183,W,021121.00,A,D*6A
$GNGLL,4201.21747,N,09340.84181,W,021122.00,A,D*68
$GNGLL,4201.21749,N,09340.84178,W,021123.00,A,D*61
$GNGLL,4201.21754,N,09340.84175,W,021124.00,A,D*67
$GNGLL,4201.21757,N,09340.84175,W,021125.00,A,D*65
$GNGLL,4201.21767,N,09340.84175,W,021126.00,A,D*65
$GNGLL,4201.21781,N,09340.84176,W,021127.00,A,D*6F
$GNGLL,4201.21783,N,09340.84178,W,021128.00,A,D*6C
$GNGLL,4201.21783,N,09340.84179,W,021129.00,A,D*6C
$GNGLL,4201.21782,N,09340.84179,W,021130.00,A,D*65
$GNGLL,4201.21785,N,09340.84182,W,021131.00,A,D*67
$GNGLL,4201.21786,N,09340.84187,W,021132.00,A,D*62
$GNGLL,4201.21785,N,09340.84192,W,021133.00,A,D*64
$GNGLL,4201.21782,N,09340.84197,W,021134.00,A,D*61
$GNGLL,4201.21781,N,09340.84200,W,021135.00,A,D*6E
$GNGLL,4201.21782,N,09340.84200,W,021136.00,A,D*6E
$GNGLL,4201.21782,N,09340.84198,W,021137.00,A,D*6D
$GNGLL,4201.21782,N,09340.84197,W,021138.00,A,D*6D
$GNGLL,4201.21783,N,09340.84197,W,021139.00,A,D*6D
$GNGLL,4201.21784,N,09340.84197,W,021140.00,A,D*64
$GNGLL,4201.21783,N,09340.84201,W,021141.00,A,D*6E
$GNGLL,4201.21788,N,09340.84204,W,021142.00,A,D*63
$GNGLL,4201.21790,N,09340.84207,W,021143.00,A,D*68
$GNGLL,4201.21787,N,09340.84214,W,021144.00,A,D*6B
$GNGLL,4201.21788,N,09340.84217,W,021145.00,A,D*66
$GNGLL,4201.21796,N,09340.84214,W,021146.00,A,D*69
$GNGLL,4201.21799,N,09340.84219,W,021147.00,A,D*6A
$GNGLL,4201.21800,N,09340.84226,W,021148.00,A,D*66
$GNGLL,4201.21802,N,09340.84232,W,021149.00,A,D*60
$GNGLL,4201.21801,N,09340.84242,W,021150.00,A,D*6C
$GNGLL,4201.21800,N,09340.84250,W,021151.00,A,D*6F
$GNGLL,4201.21806,N,09340.84249,W,021152.00,A,D*62
$GNGLL,4201.21806,N,09340.84253,W,021153.00,A,D*68
$GNGLL,4201.21806,N,09340.84259,W,021154.00,A,D*65
$GNGLL,4201.21806,N,09340.84264,W,021155.00,A,D*6A
$GNGLL,4201.21808,N,09340.84272,W,021156.00,A,D*60
$GNGLL,4201.21808,N,09340.84281,W,021157.00,A,D*6D
$GNGLL,4201.21810,N,09340.84287,W,021158.00,A,D*6D
$GNGLL,4201.21810,N,09340.84288,W,021159.00,A,D*63
$GNGLL,4201.21812,N,09340.84290,W,021200.00,A,D*67
$GNGLL,4201.21812,N,09340.84293,W,021201.00,A,D*65
$GNGLL,4201.21810,N,09340.84298,W,021202.00,A,D*6F
$GNGLL,4201.21811,N,09340.84303,W,021203.00,A,D*6C
$GNGLL,4201.21804,N,09340.84309,W,021204.00,A,D*65
$GNGLL,4201.21801,N,09340.84315,W,021205.00,A,D*6C
$GNGLL,4201.21801,N,09340.84325,W,021206.00,A,D*6C
$GNGLL,4201.21800,N,09340.84334,W,021207.00,A,D*6C
$GNGLL,4201.21799,N,09340.84344,W,021208.00,A,D*6B
$GNGLL,4201.21799,N,09340.84355,W,021209.00,A,D*6A
$GNGLL,4201.21798,N,09340.84366,W,021210.00,A,D*63
$GNGLL,4201.21797,N,09340.84375,W,021211.00,A,D*6F
$GNGLL,4201.21798,N,09340.84381,W,021212.00,A,D*68
$GNGLL,4201.21798,N,09340.84391,W,021213.00,A,D*68
$GNGLL,4201.21800,N,09340.84398,W,021214.00,A,D*68
$GNGLL,4201.21802,N,09340.84399,W,021215.00,A,D*6A
$GNGLL,4201.21803,N,09340.84401,W,021216.00,A,D*6E
$GNGLL,4201.21803,N,09340.84408,W,021217.00,A,D*66
$GNGLL,4201.21803,N,09340.84418,W,021218.00,A,D*68
$GNGLL,4201.21803,N,09340.84427,W,021219.00,A,D*65
$GNGLL,4201.21803,N,09340.84434,W,021220.00,A,D*6D
$GNGLL,4201.21799,N,09340.84440,W,021221.00,A,D*63
$GNGLL,4201.21799,N,09340.84443,W,021222.00,A,D*63
$GNGLL,4201.21798,N,09340.84449,W,021223.00,A,D*69
$GNGLL,4201.21801,N,09340.84450,W,021224.00,A,D*69
$GNGLL,4201.21794,N,09340.84455,W,021225.00,A,D*6E
$GNGLL,4201.21791,N,09340.84459,W,021226.00,A,D*64
$GNGLL,4201.21788,N,09340.84463,W,021227.00,A,D*64
$GNGLL,4201.21787,N,09340.84466,W,021228.00,A,D*61
$GNGLL,4201.21782,N,09340.84471,W,021229.00,A,D*63
$GNGLL,4201.21778,N,09340.84476,W,021230.00,A,D*69
$GNGLL,4201.21775,N,09340.84478,W,021231.00,A,D*6B
$GNGLL,4201.21773,N,09340.84482,W,021232.00,A,D*6B
$GNGLL,4201.21770,N,09340.84488,W,021233.00,A,D*63
$GNGLL,4201.21769,N,09340.84489,W,021234.00,A,D*6D
$GNGLL,4201.21771,N,09340.84487,W,021235.00,A,D*6B
$GNGLL,4201.21771,N,09340.84489,W,021236.00,A,D*66
$GNGLL,4201.21770,N,09340.84494,W,021237.00,A,D*6A
$GNGLL,4201.21770,N,09340.84495,W,021238.00,A,D*64
$GNGLL,4201.21771,N,09340.84497,W,021239.00,A,D*66
$GNGLL,4201.21768,N,09340.84494,W,021240.00,A,D*63
$GNGLL,4201.21766,N,09340.84491,W,021241.00,A,D*69
$GNGLL,4201.21764,N,09340.84491,W,021242.00,A,D*68
$GNGLL,4201.21759,N,09340.84489,W,021243.00,A,D*6E
$GNGLL,4201.21753,N,09340.84488,W,021244.00,A,D*62
$GNGLL,4201.21748,N,09340.84487,W,021245.00,A,D*66
$GNGLL,4201.21743,N,09340.84488,W,021246.00,A,D*61
$GNGLL,4201.21738,N,09340.84491,W,021247.00,A,D*64
$GNGLL,4201.21733,N,09340.84489,W,021248.00,A,D*69
$GNGLL,4201.21726,N,09340.84490,W,021249.00,A,D*64
$GNGLL,4201.21722,N,09340.84492,W,021250.00,A,D*6A
$GNGLL,4201.21716,N,09340.84489,W,021251.00,A,D*66
$GNGLL,4201.21711,N,09340.84487,W,021252.00,A,D*6C
$GNGLL,4201.21706,N,09340.84484,W,021253.00,A,D*68
$GNGLL,4201.21702,N,09340.84481,W,021254.00,A,D*6E
$GNGLL,4201.21694,N,09340.84478,W,021255.00,A,D*67
$GNGLL,4201.21689,N,09340.84473,W,021256.00,A,D*63
$GNGLL,4201.21683,N,09340.84471,W,021257.00,A,D*6A
$GNGLL,4201.21675,N,09340.84472,W,021258.00,A,D*6F
$GNGLL,4201.21671,N,09340.84470,W,021259.00,A,D*68
$GNGLL,4201.21667,N,09340.84467,W,021300.00,A,D*64
$GNGLL,4201.21661,N,09340.84467,W,021301.00,A,D*63
$GNGLL,4201.21654,N,09340.84466,W,021302.00,A,D*67
$GNGLL,4201.21649,N,09340.84464,W,021303.00,A,D*68
$GNGLL,4201.21645,N,09340.84461,W,021304.00,A,D*66
$GNGLL,4201.21642,N,09340.84460,W,021305.00,A,D*61
$GNGLL,4201.21638,N,09340.84460,W,021306.00,A,D*6F
$GNGLL,4201.21634,N,09340.84459,W,021307.00,A,D*68
$GNGLL,4201.21631,N,09340.84462,W,021308.00,A,D*6A
$GNGLL,4201.21625,N,09340.84466,W,021309.00,A,D*6A
$GNGLL,4201.21623,N,09340.84469,W,021310.00,A,D*6B
$GNGLL,4201.21622,N,09340.84467,W,021311.00,A,D*65
$GNGLL,4201.21622,N,09340.84466,W,021312.00,A,D*67
$GNGLL,4201.21622,N,09340.84466,W,021313.00,A,D*66
$GNGLL,4201.21621,N,09340.84466,W,021314.00,A,D*62
$GNGLL,4201.21621,N,09340.84467,W,021315.00,A,D*62
$GNGLL,4201.21619,N,09340.84468,W,021316.00,A,D*65
$GNGLL,4201.21618,N,09340.84471,W,021317.00,A,D*6D
$GNGLL,4201.21616,N,09340.84473,W,021318.00,A,D*6E
$GNGLL,4201.21613,N,09340.84476,W,021319.00,A,D*6F
$GNGLL,4201.21612,N,09340.84478,W,021320.00,A,D*6A
$GNGLL,4201.21612,N,09340.84479,W,021321.00,A,D*6A
$GNGLL,4201.21613,N,09340.84482,W,021322.00,A,D*6C
$GNGLL,4201.21613,N,09340.84483,W,021323.00,A,D*6C
$GNGLL,4201.21612,N,09340.84486,W,021324.00,A,D*6F
$GNGLL,4201.21608,N,09340.84488,W,021325.00,A,D*6B
$GNGLL,4201.21612,N,09340.84500,W,021326.00,A,D*62
$GNGLL,4201.21611,N,09340.84501,W,021327.00,A,D*61
$GNGLL,4201.21608,N,09340.84500,W,021328.00,A,D*67
$GNGLL,4201.21609,N,09340.84503,W,021329.00,A,D*64
$GNGLL,4201.21611,N,09340.84508,W,021330.00,A,D*6E
$GNGLL,4201.21618,N,09340.84517,W,021331.00,A,D*68
$GNGLL,4201.21619,N,09340.84521,W,021332.00,A,D*6F
$GNGLL,4201.21624,N,09340.84529,W,021333.00,A,D*68
$GNGLL,4201.21630,N,09340.84537,W,021334.00,A,D*65
$GNGLL,4201.21635,N,09340.84544,W,021335.00,A,D*65
$GNGLL,4201.21641,N,09340.84551,W,021336.00,A,D*61
$GNGLL,4201.21644,N,09340.84554,W,021337.00,A,D*60
$GNGLL,4201.21648,N,09340.84559,W,021338.00,A,D*6E
$GNGLL,4201.21635,N,09340.84583,W,021339.00,A,D*62
$GNGLL,4201.21631,N,09340.84603,W,021340.00,A,D*63
$GNGLL,4201.21630,N,09340.84617,W,021341.00,A,D*66
$GNGLL,4201.21633,N,09340.84631,W,021342.00,A,D*62
$GNGLL,4201.21632,N,09340.84640,W,021343.00,A,D*64
$GNGLL,4201.21639,N,09340.84652,W,021344.00,A,D*6B
$GNGLL,4201.21641,N,09340.84658,W,021345.00,A,D*6F
$GNGLL,4201.21633,N,09340.84661,W,021346.00,A,D*63
$GNGLL,4201.21627,N,09340.84662,W,021347.00,A,D*64
$GNGLL,4201.21622,N,09340.84664,W,021348.00,A,D*68
$GNGLL,4201.21614,N,09340.84665,W,021349.00,A,D*6D
$GNGLL,4201.21600,N,09340.84666,W,021350.00,A,D*63
$GNGLL,4201.21600,N,09340.84669,W,021351.00,A,D*6D
$GNGLL,4201.21603,N,09340.84670,W,021352.00,A,D*65
$GNGLL,4201.21612,N,09340.84674,W,021353.00,A,D*60
$GNGLL,4201.21617,N,09340.84679,W,021354.00,A,D*6F
$GNGLL,4201.21621,N,09340.84682,W,021355.00,A,D*6F
$GNGLL,4201.21623,N,09340.84683,W,021356.00,A,D*6F
$GNGLL,4201.21620,N,09340.84683,W,021357.00,A,D*6D
$GNGLL,4201.21616,N,09340.84681,W,021358.00,A,D*65
$GNGLL,4201.21606,N,09340.84680,W,021359.00,A,D*64
$GNGLL,4201.21613,N,09340.84681,W,021400.00,A,D*6A
$GNGLL,4201.21605,N,09340.84676,W,021401.00,A,D*64
$GNGLL,4201.21603,N,09340.84668,W,021402.00,A,D*6E
$GNGLL,4201.21603,N,09340.84662,W,021403.00,A,D*65
$GNGLL,4201.21596,N,09340.84658,W,021404.00,A,D*64
$GNGLL,4201.21584,N,09340.84652,W,021405.00,A,D*6C
$GNGLL,4201.21571,N,09340.84649,W,021406.00,A,D*6F
$GNGLL,4201.21561,N,09340.84647,W,021407.00,A,D*61
$GNGLL,4201.21557,N,09340.84645,W,021408.00,A,D*69
$GNGLL,4201.21552,N,09340.84641,W,021409.00,A,D*69
$GNGLL,4201.21545,N,09340.84633,W,021410.00,A,D*62
$GNGLL,4201.21533,N,09340.84625,W,021411.00,A,D*65
$GNGLL,4201.21528,N,09340.84622,W,021412.00,A,D*6B
$GNGLL,4201.21524,N,09340.84620,W,021413.00,A,D*64
$GNGLL,4201.21521,N,09340.84618,W,021414.00,A,D*6D
$GNGLL,4201.21513,N,09340.84616,W,021415.00,A,D*63
$GNGLL,4201.21510,N,09340.84613,W,021416.00,A,D*66
$GNGLL,4201.21506,N,09340.84610,W,021417.00,A,D*63
$GNGLL,4201.21507,N,09340.84610,W,021418.00,A,D*6D
$GNGLL,4201.21506,N,09340.84607,W,021419.00,A,D*6B
$GNGLL,4201.21503,N,09340.84601,W,021420.00,A,D*62
$GNGLL,4201.21495,N,09340.84595,W,021421.00,A,D*63
$GNGLL,4201.21484,N,09340.84583,W,021422.00,A,D*67
$GNGLL,4201.21472,N,09340.84576,W,021423.00,A,D*65
$GNGLL,4201.21461,N,09340.84567,W,021424.00,A,D*60
$GNGLL,4201.21448,N,09340.84563,W,021425.00,A,D*6E
$GNGLL,4201.21438,N,09340.84558,W,021426.00,A,D*62
$GNGLL,4201.21430,N,09340.84554,W,021427.00,A,D*67
$GNGLL,4201.21423,N,09340.84550,W,021428.00,A,D*6E
$GNGLL,4201.21417,N,09340.84547,W,021429.00,A,D*6E
$GNGLL,4201.21413,N,09340.84543,W,021430.00,A,D*66
$GNGLL,4201.21408,N,09340.84541,W,021431.00,A,D*6F
$GNGLL,4201.21402,N,09340.84537,W,021432.00,A,D*67
$GNGLL,4201.21401,N,09340.84531,W,021433.00,A,D*63
$GNGLL,4201.21398,N,09340.84527,W,021434.00,A,D*64
$GNGLL,4201.21395,N,09340.84522,W,021435.00,A,D*6D
$GNGLL,4201.21393,N,09340.84517,W,021436.00,A,D*6E
$GNGLL,4201.21393,N,09340.84516,W,021437.00,A,D*6E
$GNGLL,4201.21399,N,09340.84510,W,021438.00,A,D*6D
$GNGLL,4201.21402,N,09340.84504,W,021439.00,A,D*6C
$GNGLL,4201.21404,N,09340.84500,W,021440.00,A,D*60
$GNGLL,4201.21405,N,09340.84496,W,021441.00,A,D*6E
$GNGLL,4201.21405,N,09340.84495,W,021442.00,A,D*6E
$GNGLL,4201.21407,N,09340.84494,W,021443.00,A,D*6C
$GNGLL,4201.21412,N,09340.84488,W,021444.00,A,D*62
$GNGLL,4201.21416,N,09340.84484,W,021445.00,A,D*6B
$GNGLL,4201.21418,N,09340.84482,W,021446.00,A,D*60
$GNGLL,4201.21420,N,09340.84481,W,021447.00,A,D*69
$GNGLL,4201.21425,N,09340.84479,W,021448.00,A,D*64
$GNGLL,4201.21427,N,09340.84478,W,021449.00,A,D*66
$GNGLL,4201.21426,N,09340.84475,W,021450.00,A,D*62
$GNGLL,4201.21425,N,09340.84473,W,021451.00,A,D*66
$GNGLL,4201.21423,N,09340.84472,W,021452.00,A,D*62
$GNGLL,4201.21419,N,09340.84470,W,021453.00,A,D*68
$GNGLL,4201.21417,N,09340.84471,W,021454.00,A,D*60
$GNGLL,4201.21418,N,09340.84472,W,021455.00,A,D*6D
$GNGLL,4201.21418,N,09340.84472,W,021456.00,A,D*6E
$GNGLL,4201.21421,N,09340.84472,W,021457.00,A,D*65
$GNGLL,4201.21419,N,09340.84474,W,021458.00,A,D*67
$GNGLL,4201.21418,N,09340.84474,W,021459.00,A,D*67
$GNGLL,4201.21415,N,09340.84472,W,021500.00,A,D*61
$GNGLL,4201.21412,N,09340.84472,W,021501.00,A,D*67
$GNGLL,4201.21412,N,09340.84473,W,021502.00,A,D*65
$GNGLL,4201.21416,N,09340.84475,W,021503.00,A,D*66
$GNGLL,4201.21412,N,09340.84476,W,021504.00,A,D*66
$GNGLL,4201.21411,N,09340.84478,W,021505.00,A,D*6A
$GNGLL,4201.21416,N,09340.84480,W,021506.00,A,D*69
$GNGLL,4201.21418,N,09340.84481,W,021507.00,A,D*67
$GNGLL,4201.21415,N,09340.84486,W,021508.00,A,D*62
$GNGLL,4201.21415,N,09340.84491,W,021509.00,A,D*65
$GNGLL,4201.21417,N,09340.84495,W,021510.00,A,D*6B
$GNGLL,4201.21417,N,09340.84496,W,021511.00,A,D*69
$GNGLL,4201.21411,N,09340.84504,W,021512.00,A,D*66
$GNGLL,4201.21406,N,09340.84511,W,021513.00,A,D*65
$GNGLL,4201.21404,N,09340.84510,W,021514.00,A,D*61
$GNGLL,4201.21402,N,09340.84506,W,021515.00,A,D*61
$GNGLL,4201.21399,N,09340.84504,W,021516.00,A,D*65
$GNGLL,4201.21394,N,09340.84502,W,021517.00,A,D*6F
$GNGLL,4201.21392,N,09340.84500,W,021518.00,A,D*64
$GNGLL,4201.21395,N,09340.84500,W,021519.00,A,D*62
$GNGLL,4201.21391,N,09340.84499,W,021520.00,A,D*6D
$GNGLL,4201.21389,N,09340.84497,W,021521.00,A,D*6B
$GNGLL,4201.21387,N,09340.84500,W,021522.00,A,D*69
$GNGLL,4201.21383,N,09340.84501,W,021523.00,A,D*6D
$GNGLL,4201.21382,N,09340.84505,W,021524.00,A,D*6F
$GNGLL,4201.21380,N,09340.84507,W,021525.00,A,D*6E
$GNGLL,4201.21380,N,09340.84508,W,021526.00,A,D*62
$GNGLL,4201.21380,N,09340.84509,W,021527.00,A,D*62
$GNGLL,4201.21378,N,09340.84508,W,021528.00,A,D*6B
$GNGLL,4201.21376,N,09340.84509,W,021529.00,A,D*65
$GNGLL,4201.21375,N,09340.84510,W,021530.00,A,D*66
$GNGLL,4201.21374,N,09340.84508,W,021531.00,A,D*6F
$GNGLL,4201.21374,N,09340.84508,W,021532.00,A,D*6C
$GNGLL,4201.21373,N,09340.84508,W,021533.00,A,D*6A
$GNGLL,4201.21375,N,09340.84508,W,021534.00,A,D*6B
$GNGLL,4201.21376,N,09340.84505,W,021535.00,A,D*64
$GNGLL,4201.21380,N,09340.84507,W,021536.00,A,D*6C
$GNGLL,4201.21381,N,09340.84506,W,021537.00,A,D*6D
$GNGLL,4201.21381,N,09340.84507,W,021538.00,A,D*63
$GNGLL,4201.21382,N,09340.84510,W,021539.00,A,D*67
$GNGLL,4201.21384,N,09340.84511,W,021540.00,A,D*6E
$GNGLL,4201.21384,N,09340.84513,W,021541.00,A,D*6D
$GNGLL,4201.21386,N,09340.84510,W,021542.00,A,D*6F
$GNGLL,4201.21388,N,09340.84508,W,021543.00,A,D*69
$GNGLL,4201.21391,N,09340.84505,W,021544.00,A,D*6B
$GNGLL,4201.21394,N,09340.84504,W,021545.00,A,D*6E
$GNGLL,4201.21401,N,09340.84500,W,021546.00,A,D*62
$GNGLL,4201.21407,N,09340.84499,W,021547.00,A,D*64
$GNGLL,4201.21409,N,09340.84498,W,021548.00,A,D*64
$GNGLL,4201.21411,N,09340.84498,W,021549.00,A,D*6C
$GNGLL,4201.21413,N,09340.84498,W,021550.00,A,D*66
$GNGLL,4201.21414,N,09340.84498,W,021551.00,A,D*60
$GNGLL,4201.21414,N,09340.84497,W,021552.00,A,D*6C
$GNGLL,4201.21413,N,09340.84500,W,021553.00,A,D*65
$GNGLL,4201.21412,N,09340.84503,W,021554.00,A,D*60
$GNGLL,4201.21412,N,09340.84504,W,021555.00,A,D*66
$GNGLL,4201.21413,N,09340.84503,W,021556.00,A,D*63
$GNGLL,4201.21412,N,09340.84503,W,021557.00,A,D*63
$GNGLL,4201.21411,N,09340.84503,W,021558.00,A,D*6F
$GNGLL,4201.21410,N,09340.84502,W,021559.00,A,D*6E
$GNGLL,4201.21411,N,09340.84501,W,021600.00,A,D*63
$GNGLL,4201.21408,N,09340.84499,W,021601.00,A,D*6A
$GNGLL,4201.21410,N,09340.84501,W,021602.00,A,D*60
$GNGLL,4201.21412,N,09340.84501,W,021603.00,A,D*63
$GNGLL,4201.21415,N,09340.84502,W,021604.00,A,D*60
$GNGLL,4201.21416,N,09340.84503,W,021605.00,A,D*63
$GNGLL,4201.21421,N,09340.84505,W,021606.00,A,D*62
$GNGLL,4201.21427,N,09340.84506,W,021607.00,A,D*66
$GNGLL,4201.21429,N,09340.84506,W,021608.00,A,D*67
$GNGLL,4201.21431,N,09340.84507,W,021609.00,A,D*6E
$GNGLL,4201.21436,N,09340.84510,W,021610.00,A,D*67
$GNGLL,4201.21440,N,09340.84516,W,021611.00,A,D*61
$GNGLL,4201.21444,N,09340.84521,W,021612.00,A,D*62
$GNGLL,4201.21448,N,09340.84527,W,021613.00,A,D*69
$GNGLL,4201.21449,N,09340.84531,W,021614.00,A,D*68
$GNGLL,4201.21449,N,09340.84538,W,021615.00,A,D*60
$GNGLL,4201.21448,N,09340.84544,W,021616.00,A,D*69
$GNGLL,4201.21451,N,09340.84552,W,021617.00,A,D*67
$GNGLL,4201.21451,N,09340.84559,W,021618.00,A,D*63
$GNGLL,4201.21453,N,09340.84565,W,021619.00,A,D*6F
$GNGLL,4201.21455,N,09340.84569,W,021620.00,A,D*6F
$GNGLL,4201.21458,N,09340.84572,W,021621.00,A,D*69
$GNGLL,4201.21462,N,09340.84576,W,021622.00,A,D*67
$GNGLL,4201.21464,N,09340.84579,W,021623.00,A,D*6F
$GNGLL,4201.21466,N,09340.84579,W,021624.00,A,D*6A
$GNGLL,4201.21470,N,09340.84582,W,021625.00,A,D*68
$GNGLL,4201.21472,N,09340.84583,W,021626.00,A,D*68
$GNGLL,4201.21473,N,09340.84583,W,021627.00,A,D*68
$GNGLL,4201.21473,N,09340.84582,W,021628.00,A,D*66
$GNGLL,4201.21473,N,09340.84581,W,021629.00,A,D*64
$GNGLL,4201.21475,N,09340.84579,W,021630.00,A,D*6D
$GNGLL,4201.21476,N,09340.84577,W,021631.00,A,D*61
$GNGLL,4201.21473,N,09340.84574,W,021632.00,A,D*64
$GNGLL,4201.21473,N,09340.84572,W,021633.00,A,D*63
$GNGLL,4201.21477,N,09340.84571,W,021634.00,A,D*63
$GNGLL,4201.21479,N,09340.84568,W,021635.00,A,D*64
$GNGLL,4201.21480,N,09340.84564,W,021636.00,A,D*6D
$GNGLL,4201.21483,N,09340.84560,W,021637.00,A,D*6B
$GNGLL,4201.21485,N,09340.84558,W,021638.00,A,D*69
$GNGLL,4201.21485,N,09340.84555,W,021639.00,A,D*65
$GNGLL,4201.21487,N,09340.84553,W,021640.00,A,D*6F
$GNGLL,4201.21488,N,09340.84550,W,021641.00,A,D*62
$GNGLL,4201.21491,N,09340.84544,W,021642.00,A,D*6C
$GNGLL,4201.21492,N,09340.84540,W,021643.00,A,D*6A
$GNGLL,4201.21493,N,09340.84538,W,021644.00,A,D*63
$GNGLL,4201.21496,N,09340.84535,W,021645.00,A,D*6A
$GNGLL,4201.21497,N,09340.84531,W,021646.00,A,D*6C
$GNGLL,4201.21497,N,09340.84530,W,021647.00,A,D*6C
$GNGLL,4201.21498,N,09340.84526,W,021648.00,A,D*6B
$GNGLL,4201.21500,N,09340.84521,W,021649.00,A,D*6D
$GNGLL,4201.21503,N,09340.84519,W,021650.00,A,D*6D
$GNGLL,4201.21505,N,09340.84512,W,021651.00,A,D*61
$GNGLL,4201.21509,N,09340.84508,W,021652.00,A,D*65
$GNGLL,4201.21513,N,09340.84510,W,021653.00,A,D*66
$GNGLL,4201.21519,N,09340.84510,W,021654.00,A,D*6B
$GNGLL,4201.21533,N,09340.84511,W,021655.00,A,D*63
$GNGLL,4201.21548,N,09340.84512,W,021656.00,A,D*6F
$GNGLL,4201.21557,N,09340.84511,W,021657.00,A,D*63
$GNGLL,4201.21563,N,09340.84511,W,021658.00,A,D*6B
$GNGLL,4201.21569,N,09340.84510,W,021659.00,A,D*61
$GNGLL,4201.21573,N,09340.84506,W,021700.00,A,D*60
$GNGLL,4201.21578,N,09340.84507,W,021701.00,A,D*6B
$GNGLL,4201.21583,N,09340.84489,W,021702.00,A,D*6B
$GNGLL,4201.21588,N,09340.84481,W,021703.00,A,D*69
$GNGLL,4201.21578,N,09340.84479,W,021704.00,A,D*66
$GNGLL,4201.21555,N,09340.84473,W,021705.00,A,D*62
$GNGLL,4201.21535,N,09340.84470,W,021706.00,A,D*64
$GNGLL,4201.21548,N,09340.84464,W,021707.00,A,D*6A
$GNGLL,4201.21506,N,09340.84461,W,021708.00,A,D*6A
$GNGLL,4201.21614,N,09340.84445,W,021709.00,A,D*6D
$GNGLL,4201.21641,N,09340.84428,W,021710.00,A,D*6E
$GNGLL,4201.21628,N,09340.84416,W,021711.00,A,D*6D
$GNGLL,4201.21643,N,09340.84414,W,021712.00,A,D*61
$GNGLL,4201.21646,N,09340.84400,W,021713.00,A,D*60
$GNGLL,4201.21601,N,09340.84390,W,021714.00,A,D*6A
$GNGLL,4201.21598,N,09340.84398,W,021715.00,A,D*60
$GNGLL,4201.21572,N,09340.84398,W,021716.00,A,D*67
$GNGLL,4201.21554,N,09340.84400,W,021717.00,A,D*64
$GNGLL,4201.21548,N,09340.84409,W,021718.00,A,D*6F
$GNGLL,4201.21548,N,09340.84416,W,021719.00,A,D*60
$GNGLL,4201.21550,N,09340.84432,W,021720.00,A,D*65
$GNGLL,4201.21550,N,09340.84442,W,021721.00,A,D*63
$GNGLL,4201.21559,N,09340.84449,W,021722.00,A,D*62
$GNGLL,4201.21567,N,09340.84460,W,021723.00,A,D*65
$GNGLL,4201.21590,N,09340.84469,W,021724.00,A,D*63
$GNGLL,4201.21607,N,09340.84476,W,021725.00,A,D*61
$GNGLL,4201.21626,N,09340.84477,W,021726.00,A,D*60
$GNGLL,4201.21679,N,09340.84485,W,021727.00,A,D*66
$GNGLL,4201.21706,N,09340.84480,W,021728.00,A,D*65
$GNGLL,4201.21709,N,09340.84481,W,021729.00,A,D*6A
$GNGLL,4201.21678,N,09340.84483,W,021730.00,A,D*67
$GNGLL,4201.21655,N,09340.84494,W,021731.00,A,D*6F
$GNGLL,4201.21647,N,09340.84500,W,021732.00,A,D*63
$GNGLL,4201.21648,N,09340.84502,W,021733.00,A,D*6F
$GNGLL,4201.21659,N,09340.84502,W,021734.00,A,D*68
$GNGLL,4201.21662,N,09340.84507,W,021735.00,A,D*64
$GNGLL,4201.21670,N,09340.84512,W,021736.00,A,D*60
$GNGLL,4201.21676,N,09340.84519,W,021737.00,A,D*6C
$GNGLL,4201.21680,N,09340.84520,W,021738.00,A,D*60
$GNGLL,4201.21700,N,09340.84527,W,021739.00,A,D*6F
$GNGLL,4201.21690,N,09340.84520,W,021740.00,A,D*6E
$GNGLL,4201.21670,N,09340.84519,W,021741.00,A,D*6B
$GNGLL,4201.21682,N,09340.84517,W,021742.00,A,D*6B
$GNGLL,4201.21691,N,09340.84528,W,021743.00,A,D*64
$GNGLL,4201.21698,N,09340.84529,W,021744.00,A,D*6B
$GNGLL,4201.21746,N,09340.84520,W,021745.00,A,D*61
$GNGLL,4201.21751,N,09340.84518,W,021746.00,A,D*6F
$GNGLL,4201.21735,N,09340.84530,W,021747.00,A,D*66
$GNGLL,4201.21731,N,09340.84543,W,021748.00,A,D*69
$GNGLL,4201.21735,N,09340.84548,W,021749.00,A,D*67
$GNGLL,4201.21731,N,09340.84555,W,021750.00,A,D*67
$GNGLL,4201.21709,N,09340.84566,W,021751.00,A,D*6D
$GNGLL,4201.21722,N,09340.84576,W,021752.00,A,D*66
$GNGLL,4201.21729,N,09340.84577,W,021753.00,A,D*6D
$GNGLL,4201.21727,N,09340.84579,W,021754.00,A,D*6A
$GNGLL,4201.21730,N,09340.84583,W,021755.00,A,D*68
$GNGLL,4201.21757,N,09340.84583,W,021756.00,A,D*6A
$GNGLL,4201.21755,N,09340.84592,W,021757.00,A,D*69
$GNGLL,4201.21726,N,09340.84618,W,021758.00,A,D*63
$GNGLL,4201.21720,N,09340.84623,W,021759.00,A,D*6C
$GNGLL,4201.21749,N,09340.84617,W,021800.00,A,D*67
$GNGLL,4201.21759,N,09340.84613,W,021801.00,A,D*63
$GNGLL,4201.21712,N,09340.84626,W,021802.00,A,D*69
$GNGLL,4201.21698,N,09340.84629,W,021803.00,A,D*64
$GNGLL,4201.21699,N,09340.84625,W,021804.00,A,D*6E
$GNGLL,4201.21706,N,09340.84618,W,021805.00,A,D*66
$GNGLL,4201.21726,N,09340.84608,W,021806.00,A,D*66
$GNGLL,4201.21714,N,09340.84602,W,021807.00,A,D*6C
$GNGLL,4201.21699,N,09340.84603,W,021808.00,A,D*66
$GNGLL,4201.21701,N,09340.84606,W,021809.00,A,D*62
$GNGLL,4201.21698,N,09340.84602,W,021810.00,A,D*6F
$GNGLL,4201.21683,N,09340.84603,W,021811.00,A,D*65
$GNGLL,4201.21659,N,09340.84606,W,021812.00,A,D*64
$GNGLL,4201.21631,N,09340.84616,W,021813.00,A,D*6A
$GNGLL,4201.21610,N,09340.84612,W,021814.00,A,D*6A
$GNGLL,4201.21598,N,09340.84599,W,021815.00,A,D*68
$GNGLL,4201.21608,N,09340.84587,W,021816.00,A,D*6E
$GNGLL,4201.21606,N,09340.84577,W,021817.00,A,D*6E
$GNGLL,4201.21600,N,09340.84566,W,021818.00,A,D*67
$GNGLL,4201.21592,N,09340.84575,W,021819.00,A,D*6C
$GNGLL,4201.21592,N,09340.84577,W,021820.00,A,D*64
$GNGLL,4201.21638,N,09340.84568,W,021821.00,A,D*68
$GNGLL,4201.21645,N,09340.84569,W,021822.00,A,D*60
$GNGLL,4201.21649,N,09340.84568,W,021823.00,A,D*6C
$GNGLL,4201.21657,N,09340.84563,W,021824.00,A,D*6F
$GNGLL,4201.21657,N,09340.84563,W,021825.00,A,D*6E
$GNGLL,4201.21638,N,09340.84570,W,021826.00,A,D*66
$GNGLL,4201.21644,N,09340.84575,W,021827.00,A,D*69
$GNGLL,4201.21645,N,09340.84576,W,021828.00,A,D*64
$GNGLL,4201.21644,N,09340.84580,W,021829.00,A,D*6D
$GNGLL,4201.21641,N,09340.84573,W,021830.00,A,D*6C
$GNGLL,4201.21639,N,09340.84575,W,021831.00,A,D*64
$GNGLL,4201.21642,N,09340.84572,W,021832.00,A,D*6C
$GNGLL,4201.21644,N,09340.84572,W,021833.00,A,D*6B
$GNGLL,4201.21650,N,09340.84572,W,021834.00,A,D*69
$GNGLL,4201.21638,N,09340.84582,W,021835.00,A,D*69
$GNGLL,4201.21633,N,09340.84591,W,021836.00,A,D*63
$GNGLL,4201.21632,N,09340.84594,W,021837.00,A,D*66
$GNGLL,4201.21635,N,09340.84589,W,021838.00,A,D*62
$GNGLL,4201.21642,N,09340.84585,W,021839.00,A,D*6F
$GNGLL,4201.21659,N,09340.84578,W,021840.00,A,D*69
$GNGLL,4201.21662,N,09340.84569,W,021841.00,A,D*60
$GNGLL,4201.21661,N,09340.84564,W,021842.00,A,D*6D
$GNGLL,4201.21660,N,09340.84566,W,021843.00,A,D*6F
$GNGLL,4201.21665,N,09340.84560,W,021844.00,A,D*6B
$GNGLL,4201.21662,N,09340.84556,W,021845.00,A,D*68
$GNGLL,4201.21660,N,09340.84553,W,021846.00,A,D*6C
$GNGLL,4201.21674,N,09340.84554,W,021847.00,A,D*6F
$GNGLL,4201.21669,N,09340.84544,W,021848.00,A,D*6D
$GNGLL,4201.21640,N,09340.84562,W,021849.00,A,D*63
$GNGLL,4201.21649,N,09340.84549,W,021850.00,A,D*6B
$GNGLL,4201.21659,N,09340.84542,W,021851.00,A,D*60
$GNGLL,4201.21665,N,09340.84538,W,021852.00,A,D*61
$GNGLL,4201.21668,N,09340.84532,W,021853.00,A,D*67
$GNGLL,4201.21715,N,09340.84513,W,021854.00,A,D*68
$GNGLL,4201.21727,N,09340.84501,W,021855.00,A,D*6B
$GNGLL,4201.21721,N,09340.84494,W,021856.00,A,D*63
$GNGLL,4201.21734,N,09340.84488,W,021857.00,A,D*6B
$GNGLL,4201.21720,N,09340.84491,W,021858.00,A,D*69
$GNGLL,4201.21700,N,09340.84497,W,021859.00,A,D*6C
$GNGLL,4201.21710,N,09340.84484,W,021900.00,A,D*62
$GNGLL,4201.21697,N,09340.84492,W,021901.00,A,D*6A
$GNGLL,4201.21687,N,09340.84491,W,021902.00,A,D*6B
$GNGLL,4201.21679,N,09340.84489,W,021903.00,A,D*62
$GNGLL,4201.21677,N,09340.84483,W,021904.00,A,D*61
$GNGLL,4201.21689,N,09340.84469,W,021905.00,A,D*65
$GNGLL,4201.21691,N,09340.84464,W,021906.00,A,D*62
$GNGLL,4201.21691,N,09340.84459,W,021907.00,A,D*6D
$GNGLL,4201.21688,N,09340.84459,W,021908.00,A,D*6A
$GNGLL,4201.21690,N,09340.84456,W,021909.00,A,D*6D
$GNGLL,4201.21689,N,09340.84462,W,021910.00,A,D*6A
$GNGLL,4201.21689,N,09340.84471,W,021911.00,A,D*69
$GNGLL,4201.21684,N,09340.84475,W,021912.00,A,D*63
$GNGLL,4201.21681,N,09340.84481,W,021913.00,A,D*6C
$GNGLL,4201.21684,N,09340.84471,W,021914.00,A,D*61
$GNGLL,4201.21683,N,09340.84471,W,021915.00,A,D*67
$GNGLL,4201.21679,N,09340.84467,W,021916.00,A,D*66
$GNGLL,4201.21703,N,09340.84467,W,021917.00,A,D*6B
$GNGLL,4201.21719,N,09340.84464,W,021918.00,A,D*6C
$GNGLL,4201.21718,N,09340.84465,W,021919.00,A,D*6D
$GNGLL,4201.21708,N,09340.84482,W,021920.00,A,D*6F
$GNGLL,4201.21697,N,09340.84489,W,021921.00,A,D*62
$GNGLL,4201.21713,N,09340.84488,W,021922.00,A,D*6D
$GNGLL,4201.21713,N,09340.84494,W,021923.00,A,D*61
$GNGLL,4201.21704,N,09340.84499,W,021924.00,A,D*6D
$GNGLL,4201.21700,N,09340.84503,W,021925.00,A,D*6A
$GNGLL,4201.21697,N,09340.84509,W,021926.00,A,D*6C
$GNGLL,4201.21695,N,09340.84507,W,021927.00,A,D*61
$GNGLL,4201.21705,N,09340.84509,W,021928.00,A,D*68
$GNGLL,4201.21705,N,09340.84498,W,021929.00,A,D*60
$GNGLL,4201.21698,N,09340.84490,W,021930.00,A,D*65
$GNGLL,4201.21692,N,09340.84490,W,021931.00,A,D*6E
$GNGLL,4201.21668,N,09340.84484,W,021932.00,A,D*6D
$GNGLL,4201.21625,N,09340.84483,W,021933.00,A,D*62
$GNGLL,4201.21619,N,09340.84490,W,021934.00,A,D*68
$GNGLL,4201.21589,N,09340.84499,W,021935.00,A,D*6A
$GNGLL,4201.21568,N,09340.84510,W,021936.00,A,D*66
$GNGLL,4201.21563,N,09340.84503,W,021937.00,A,D*6E
$GNGLL,4201.21558,N,09340.84503,W,021938.00,A,D*69
$GNGLL,4201.21559,N,09340.84502,W,021939.00,A,D*68
$GNGLL,4201.21564,N,09340.84505,W,021940.00,A,D*6F
$GNGLL,4201.21550,N,09340.84511,W,021941.00,A,D*6C
$GNGLL,4201.21526,N,09340.84511,W,021942.00,A,D*6E
$GNGLL,4201.21545,N,09340.84512,W,021943.00,A,D*69
$GNGLL,4201.21550,N,09340.84516,W,021944.00,A,D*6E
$GNGLL,4201.21553,N,09340.84517,W,021945.00,A,D*6D
$GNGLL,4201.21558,N,09340.84511,W,021946.00,A,D*63
$GNGLL,4201.21568,N,09340.84511,W,021947.00,A,D*61
$GNGLL,4201.21577,N,09340.84509,W,021948.00,A,D*69
$GNGLL,4201.21571,N,09340.84507,W,021949.00,A,D*60
$GNGLL,4201.21595,N,09340.84504,W,021950.00,A,D*61
$GNGLL,4201.21606,N,09340.84491,W,021951.00,A,D*64
$GNGLL,4201.21604,N,09340.84492,W,021952.00,A,D*66
$GNGLL,4201.21607,N,09340.84492,W,021953.00,A,D*64
$GNGLL,4201.21587,N,09340.84498,W,021954.00,A,D*62
$GNGLL,4201.21610,N,09340.84510,W,021955.00,A,D*6F
$GNGLL,4201.21642,N,09340.84493,W,021956.00,A,D*61
$GNGLL,4201.21667,N,09340.84483,W,021957.00,A,D*66
$GNGLL,4201.21658,N,09340.84480,W,021958.00,A,D*66
$GNGLL,4201.21662,N,09340.84481,W,021959.00,A,D*6F
$GNGLL,4201.21679,N,09340.84477,W,022000.00,A,D*6A
$GNGLL,4201.21683,N,09340.84480,W,022001.00,A,D*66
$GNGLL,4201.21698,N,09340.84480,W,022002.00,A,D*6F
$GNGLL,4201.21692,N,09340.84471,W,022003.00,A,D*6A
$GNGLL,4201.21685,N,09340.84470,W,022004.00,A,D*6A
$GNGLL,4201.21675,N,09340.84461,W,022005.00,A,D*64
$GNGLL,4201.21662,N,09340.84454,W,022006.00,A,D*67
$GNGLL,4201.21647,N,09340.84458,W,022007.00,A,D*6D
$GNGLL,4201.21643,N,09340.84466,W,022008.00,A,D*6B
$GNGLL,4201.21601,N,09340.84476,W,022009.00,A,D*6D
$GNGLL,4201.21569,N,09340.84483,W,022010.00,A,D*62
$GNGLL,4201.21574,N,09340.84480,W,022011.00,A,D*6C
$GNGLL,4201.21544,N,09340.84488,W,022012.00,A,D*64
$GNGLL,4201.21559,N,09340.84492,W,022013.00,A,D*62
$GNGLL,4201.21638,N,09340.84471,W,022014.00,A,D*6C
$GNGLL,4201.21695,N,09340.84449,W,022015.00,A,D*61
$GNGLL,4201.21708,N,09340.84439,W,022016.00,A,D*60
$GNGLL,4201.21708,N,09340.84440,W,022017.00,A,D*6F
$GNGLL,4201.21700,N,09340.84447,W,022018.00,A,D*6F
$GNGLL,4201.21690,N,09340.84435,W,022019.00,A,D*63
$GNGLL,4201.21670,N,09340.84442,W,022020.00,A,D*67
$GNGLL,4201.21640,N,09340.84438,W,022021.00,A,D*68
$GNGLL,4201.21629,N,09340.84432,W,022022.00,A,D*6E
$GNGLL,4201.21596,N,09340.84426,W,022023.00,A,D*6D
$GNGLL,4201.21570,N,09340.84428,W,022024.00,A,D*6C
$GNGLL,4201.21577,N,09340.84433,W,022025.00,A,D*60
$GNGLL,4201.21574,N,09340.84437,W,022026.00,A,D*64
$GNGLL,4201.21575,N,09340.84440,W,022027.00,A,D*64
$GNGLL,4201.21583,N,09340.84435,W,022028.00,A,D*60
$GNGLL,4201.21599,N,09340.84417,W,022029.00,A,D*6A
$GNGLL,4201.21601,N,09340.84390,W,022030.00,A,D*68
$GNGLL,4201.21599,N,09340.84367,W,022031.00,A,D*63
$GNGLL,4201.21593,N,09340.84355,W,022032.00,A,D*6B
$GNGLL,4201.21576,N,09340.84355,W,022033.00,A,D*61
$GNGLL,4201.21545,N,09340.84357,W,022034.00,A,D*64
$GNGLL,4201.21543,N,09340.84357,W,022035.00,A,D*63
$GNGLL,4201.21535,N,09340.84361,W,022036.00,A,D*64
$GNGLL,4201.21525,N,09340.84364,W,022037.00,A,D*61
$GNGLL,4201.21514,N,09340.84366,W,022038.00,A,D*6E
$GNGLL,4201.21495,N,09340.84377,W,022039.00,A,D*67
$GNGLL,4201.21468,N,09340.84395,W,022040.00,A,D*67
$GNGLL,4201.21455,N,09340.84392,W,022041.00,A,D*6F
$GNGLL,4201.21447,N,09340.84391,W,022042.00,A,D*6C
$GNGLL,4201.21441,N,09340.84389,W,022043.00,A,D*62
$GNGLL,4201.21436,N,09340.84382,W,022044.00,A,D*6E
$GNGLL,4201.21437,N,09340.84371,W,022045.00,A,D*62
$GNGLL,4201.21436,N,09340.84360,W,022046.00,A,D*60
$GNGLL,4201.21428,N,09340.84356,W,022047.00,A,D*6B
$GNGLL,4201.21409,N,09340.84359,W,022048.00,A,D*68
$GNGLL,4201.21426,N,09340.84350,W,022049.00,A,D*6D
$GNGLL,4201.21426,N,09340.84349,W,022050.00,A,D*6D
$GNGLL,4201.21438,N,09340.84347,W,022051.00,A,D*6D
$GNGLL,4201.21497,N,09340.84332,W,022052.00,A,D*69
$GNGLL,4201.21549,N,09340.84308,W,022053.00,A,D*63
$GNGLL,4201.21557,N,09340.84293,W,022054.00,A,D*68
$GNGLL,4201.21554,N,09340.84283,W,022055.00,A,D*6B
$GNGLL,4201.21556,N,09340.84259,W,022056.00,A,D*6D
$GNGLL,4201.21551,N,09340.84243,W,022057.00,A,D*60
$GNGLL,4201.21546,N,09340.84242,W,022058.00,A,D*68
$GNGLL,4201.21532,N,09340.84244,W,022059.00,A,D*6C
$GNGLL,4201.21501,N,09340.84244,W,022100.00,A,D*61
$GNGLL,4201.21503,N,09340.84227,W,022101.00,A,D*67
$GNGLL,4201.21497,N,09340.84219,W,022102.00,A,D*65
$GNGLL,4201.21487,N,09340.84229,W,022103.00,A,D*66
$GNGLL,4201.21473,N,09340.84235,W,022104.00,A,D*67
$GNGLL,4201.21465,N,09340.84232,W,022105.00,A,D*66
$GNGLL,4201.21453,N,09340.84232,W,022106.00,A,D*60
$GNGLL,4201.21444,N,09340.84228,W,022107.00,A,D*6C
$GNGLL,4201.21451,N,09340.84227,W,022108.00,A,D*68
$GNGLL,4201.21446,N,09340.84219,W,022109.00,A,D*62
$GNGLL,4201.21419,N,09340.84202,W,022110.00,A,D*6A
$GNGLL,4201.21392,N,09340.84203,W,022111.00,A,D*6E
$GNGLL,4201.21383,N,09340.84202,W,022112.00,A,D*6C
$GNGLL,4201.21375,N,09340.84203,W,022113.00,A,D*65
$GNGLL,4201.21371,N,09340.84208,W,022114.00,A,D*6D
$GNGLL,4201.21362,N,09340.84209,W,022115.00,A,D*6F
$GNGLL,4201.21360,N,09340.84212,W,022116.00,A,D*64
$GNGLL,4201.21356,N,09340.84213,W,022117.00,A,D*61
$GNGLL,4201.21334,N,09340.84215,W,022118.00,A,D*6C
$GNGLL,4201.21305,N,09340.84211,W,022119.00,A,D*6B
$GNGLL,4201.21307,N,09340.84205,W,022120.00,A,D*66
$GNGLL,4201.21303,N,09340.84200,W,022121.00,A,D*66
$GNGLL,4201.21294,N,09340.84193,W,022122.00,A,D*63
$GNGLL,4201.21282,N,09340.84187,W,022123.00,A,D*60
$GNGLL,4201.21269,N,09340.84183,W,022124.00,A,D*66
$GNGLL,4201.21252,N,09340.84180,W,022125.00,A,D*6C
$GNGLL,4201.21247,N,09340.84178,W,022126.00,A,D*6C
$GNGLL,4201.21248,N,09340.84173,W,022127.00,A,D*69
$GNGLL,4201.21254,N,09340.84170,W,022128.00,A,D*68
$GNGLL,4201.21252,N,09340.84168,W,022129.00,A,D*66
$GNGLL,4201.21232,N,09340.84168,W,022130.00,A,D*68
$GNGLL,4201.21226,N,09340.84160,W,022131.00,A,D*64
$GNGLL,4201.21211,N,09340.84146,W,022132.00,A,D*67
$GNGLL,4201.21197,N,09340.84144,W,022133.00,A,D*69
$GNGLL,4201.21183,N,09340.84139,W,022134.00,A,D*61
$GNGLL,4201.21181,N,09340.84123,W,022135.00,A,D*69
$GNGLL,4201.21181,N,09340.84114,W,022136.00,A,D*6E
$GNGLL,4201.21176,N,09340.84103,W,022137.00,A,D*61
